,City,Cloudiness,Country,Date,Humidity,Latitude,Longitude,Max Temperature,Wind Speed
0,yellowknife,75,CA,1580063523,92,62.46,-114.35,10.0,10.29
1,albany,40,US,1580063239,67,42.6,-73.97,42.8,8.05
2,souillac,40,MU,1580063356,78,-20.52,57.52,78.8,9.17
3,tasiilaq,90,GL,1580063524,44,65.61,-37.64,32.0,11.41
4,cape town,20,ZA,1580063524,63,-33.93,18.42,64.99,11.41
5,bluff,44,NZ,1580063524,91,-46.6,168.33,55.0,1.99
6,mount gambier,58,AU,1580063524,93,-37.83,140.77,48.2,3.36
7,saint-philippe,75,RE,1580063354,69,-21.36,55.77,78.8,17.22
8,lebu,14,CL,1580063357,47,-37.62,-73.65,73.78,11.79
9,puerto ayora,75,EC,1580063525,69,-0.74,-90.35,82.4,2.24
10,loiza,40,PR,1580063525,74,18.43,-65.88,82.99,10.29
11,busselton,0,AU,1580063525,37,-33.65,115.33,72.0,9.4
12,waingapu,1,ID,1580063525,73,-9.66,120.26,84.0,3.6
13,ust-nera,90,RU,1580063525,100,64.57,143.2,-40.56,1.9
14,port alfred,93,ZA,1580063526,77,-33.59,26.89,64.0,8.99
15,tuktoyaktuk,40,CA,1580063526,75,69.45,-133.04,-20.2,8.05
16,tiksi,0,RU,1580063364,68,71.69,128.87,-31.56,3.11
17,launceston,100,AU,1580063526,71,-41.45,147.17,53.6,9.17
18,mackay,75,AU,1580063526,94,-21.15,149.2,78.01,6.93
19,fortuna,90,US,1580063526,87,40.6,-124.16,55.0,5.82
20,faanui,57,PF,1580063526,74,-16.48,-151.75,82.44,11.03
21,karlstad,90,SE,1580063526,86,59.38,13.5,42.01,6.93
22,codrington,95,AU,1580063527,76,-38.27,141.97,59.47,6.69
23,ponta do sol,40,PT,1580063527,68,32.67,-17.1,64.4,9.17
24,ushuaia,75,AR,1580063527,76,-54.8,-68.3,50.0,27.51
25,vaini,75,TO,1580063527,94,-21.2,-175.2,77.0,2.24
26,tuatapere,65,NZ,1580063389,92,-46.13,167.68,54.0,1.01
27,east london,97,ZA,1580063528,45,-33.02,27.91,68.0,21.92
28,whitehorse,75,CA,1580063425,76,60.72,-135.05,-5.01,3.74
29,merrill,90,US,1580063476,86,45.18,-89.68,30.2,8.05
30,ilulissat,100,GL,1580063346,60,69.22,-51.1,10.4,9.17
31,qaanaaq,0,GL,1580063528,57,77.48,-69.36,-10.52,5.88
32,shimoda,100,JP,1580063528,65,34.67,138.95,41.0,1.01
33,coimbra,20,PT,1580063441,76,40.21,-8.42,57.0,6.93
34,klaksvik,72,FO,1580063528,61,62.23,-6.59,33.8,19.46
35,buala,20,SB,1580063529,83,-8.14,159.59,78.82,5.73
36,ancud,20,CL,1580063362,55,-41.87,-73.82,66.2,6.93
37,rikitea,68,PF,1580063529,79,-23.12,-134.97,79.29,14.5
38,ewa beach,20,US,1580063529,78,21.32,-158.01,75.2,3.36
39,hilo,1,US,1580063529,60,19.73,-155.09,73.0,8.05
40,tadine,100,NC,1580063529,89,-21.55,167.88,74.62,9.82
41,bambous virieux,40,MU,1580063414,78,-20.34,57.76,78.8,9.17
42,kavieng,74,PG,1580063529,76,-2.57,150.8,83.48,7.94
43,murray bridge,0,AU,1580063530,88,-35.12,139.27,63.0,7.0
44,kavaratti,36,IN,1580063530,65,10.57,72.64,81.09,4.32
45,khatanga,95,RU,1580063530,98,71.97,102.5,-19.89,3.06
46,novobirilyussy,100,RU,1580063530,85,56.95,90.67,12.97,9.04
47,aberdeen,100,GB,1580063358,75,57.14,-2.1,41.0,8.05
48,punta arenas,20,CL,1580063336,50,-53.15,-70.92,57.2,34.45
49,mar del plata,96,AR,1580063530,44,-38.0,-57.56,80.6,11.41
50,san quintin,35,MX,1580063531,84,30.48,-115.95,59.14,9.55
51,hovd,99,MN,1580063531,76,48.01,91.64,5.54,0.98
52,chemal,2,RU,1580063531,88,51.41,86.0,9.34,4.63
53,sibolga,98,ID,1580063531,95,1.74,98.78,73.24,1.66
54,vila franca do campo,75,PT,1580063531,87,37.72,-25.43,60.8,14.99
55,tsaratanana,62,MG,1580063531,82,-16.78,47.65,72.18,5.59
56,hobart,90,AU,1580063344,48,-42.88,147.33,60.8,6.93
57,narsaq,100,GL,1580063532,66,60.92,-46.05,12.2,3.36
58,shingu,100,JP,1580063426,88,33.73,135.98,54.3,29.44
59,mataura,70,NZ,1580063532,91,-46.19,168.86,55.0,1.99
60,bandarbeyla,0,SO,1580063532,79,9.49,50.81,78.26,28.88
61,diamantino,74,BR,1580063532,57,-14.41,-56.45,88.97,4.36
62,sistranda,75,NO,1580063532,93,63.73,8.83,43.0,5.82
63,sao joao da barra,75,BR,1580063532,61,-21.64,-41.05,82.4,6.93
64,hasaki,75,JP,1580063450,62,35.73,140.83,37.4,8.05
65,maceio,20,BR,1580063533,62,-9.67,-35.74,89.6,16.11
66,port macquarie,49,AU,1580063312,94,-31.43,152.92,73.99,14.92
67,bredasdorp,0,ZA,1580063358,55,-34.53,20.04,62.6,9.17
68,bairiki,75,KI,1580063533,88,1.33,172.98,80.6,5.82
69,atuona,0,PF,1580063533,75,-9.8,-139.03,80.29,15.23
70,cayenne,68,GF,1580063534,88,4.93,-52.33,77.0,10.29
71,hermanus,7,ZA,1580063534,78,-34.42,19.23,62.01,3.0
72,baruun-urt,0,MN,1580063442,81,46.68,113.28,11.53,11.79
73,san cristobal,75,VE,1580063534,74,7.77,-72.22,78.8,6.93
74,north bend,90,US,1580063382,87,43.41,-124.22,52.0,6.93
75,college,90,US,1580063534,98,64.86,-147.8,-14.01,2.93
76,upernavik,100,GL,1580063535,96,72.79,-56.15,-17.0,3.56
77,vestmannaeyjar,20,IS,1580063535,59,63.44,-20.27,37.4,28.86
78,port lincoln,3,AU,1580063535,84,-34.73,135.87,62.38,9.33
79,diplo,0,PK,1580063535,54,24.47,69.58,70.61,11.3
80,geraldton,17,AU,1580063439,93,-28.77,114.6,66.2,4.7
81,dikson,99,RU,1580063535,96,73.51,80.55,-3.95,2.57
82,chimore,0,BO,1580063535,33,-16.98,-65.13,99.9,3.71
83,bethel,75,US,1580063468,56,41.37,-73.41,46.99,8.05
84,atar,99,MR,1580063536,17,20.52,-13.05,82.33,11.48
85,hobyo,87,SO,1580063536,80,5.35,48.53,79.16,17.78
86,dunedin,100,NZ,1580063467,96,-45.87,170.5,57.0,1.01
87,hay river,75,CA,1580063536,85,60.82,-115.8,10.4,10.29
88,muroto,100,JP,1580063536,87,33.28,134.15,45.66,10.02
89,serebryansk,90,KZ,1580063536,76,49.69,83.29,-9.4,2.24
90,synya,99,RU,1580063537,98,65.37,58.04,-8.86,2.55
91,olavarria,43,AR,1580063537,37,-36.89,-60.32,84.99,5.01
92,arraial do cabo,0,BR,1580063374,65,-22.97,-42.03,84.2,11.41
93,rognan,100,NO,1580063537,68,67.1,15.39,25.0,34.45
94,saskylakh,98,RU,1580063537,96,71.92,114.08,-17.21,9.6
95,buin,0,CL,1580063537,17,-33.73,-70.75,91.4,6.93
96,severo-kurilsk,100,RU,1580063540,92,50.68,156.12,18.34,16.17
97,itororo,100,BR,1580063541,92,-15.12,-40.07,73.98,1.34
98,atasu,100,KZ,1580063541,86,48.68,71.64,21.96,29.12
99,te anau,60,NZ,1580063541,86,-45.42,167.72,54.0,6.64
100,esperance,8,AU,1580063541,93,-33.87,121.9,62.6,5.82
101,moyale,100,KE,1580063541,65,3.52,39.06,77.61,2.48
102,bud,90,US,1580063541,85,39.45,-86.18,41.0,12.75
103,ribeira grande,40,PT,1580063542,93,38.52,-28.7,62.6,11.41
104,parlakimidi,14,IN,1580063542,81,18.77,84.08,64.63,1.63
105,two rivers,90,US,1580063542,74,44.15,-87.57,37.99,10.29
106,havoysund,90,NO,1580063542,73,71.0,24.66,24.8,16.11
107,bundaberg,90,AU,1580063542,83,-24.85,152.35,77.0,6.93
108,dandong,100,CN,1580063542,58,40.13,124.39,26.42,8.21
109,barrow,20,US,1580063542,74,71.29,-156.79,-23.8,10.29
110,cherskiy,100,RU,1580063543,94,68.75,161.3,-17.61,1.23
111,sorong,90,ID,1580063543,97,-0.88,131.25,72.88,0.25
112,cabo san lucas,40,MX,1580063460,68,22.89,-109.91,73.99,5.82
113,sitka,90,US,1580063449,86,57.05,-135.33,41.0,16.11
114,sao filipe,0,CV,1580063543,58,14.9,-24.5,76.8,14.5
115,thompson,40,CA,1580063280,77,55.74,-97.86,5.0,3.47
116,nome,1,US,1580063543,63,64.5,-165.41,-7.6,11.41
117,provideniya,0,RU,1580063481,90,64.38,-173.3,-6.68,1.5
118,sayyan,30,YE,1580063544,72,15.17,44.32,49.96,7.45
119,clyde river,75,CA,1580063544,68,70.47,-68.59,-18.4,16.11
120,husavik,20,IS,1580063544,100,66.04,-17.34,24.8,19.46
121,tautira,40,PF,1580063532,70,-17.73,-149.15,84.2,10.29
122,sobolevo,100,RU,1580063544,87,54.43,31.9,34.54,15.75
123,moroni,20,KM,1580063544,74,-11.7,43.26,82.4,6.93
124,kaniama,100,CD,1580063545,92,-7.57,24.18,70.36,0.25
125,batagay,0,RU,1580063545,88,67.63,134.63,-42.95,2.51
126,dingle,43,PH,1580063545,91,11.0,122.67,73.92,3.06
127,torbay,40,CA,1580063545,79,47.67,-52.73,36.0,11.41
128,tongren,100,CN,1580063545,84,27.72,109.19,35.71,5.7
129,castro,2,BR,1580063408,33,-24.79,-50.01,83.8,4.32
130,yar-sale,85,RU,1580063546,100,66.83,70.83,-12.55,1.14
131,muros,75,ES,1580063535,87,42.78,-9.06,59.0,13.87
132,yangambi,58,CD,1580063546,35,0.81,24.43,78.93,1.43
133,srednekolymsk,100,RU,1580063546,97,67.45,153.68,-24.52,4.65
134,mahebourg,40,MU,1580063546,78,-20.41,57.7,78.8,9.17
135,pisco,38,PE,1580063547,30,-13.7,-76.22,73.99,18.34
136,port elizabeth,20,ZA,1580063547,68,-33.92,25.57,64.4,19.46
137,yulara,0,AU,1580063547,19,-25.24,130.99,75.2,6.93
138,san jeronimo,93,PE,1580063547,49,-11.95,-75.28,57.63,7.31
139,avera,1,US,1580063396,40,33.19,-82.53,59.0,10.29
140,bayanday,0,RU,1580063547,85,53.07,105.51,3.81,1.1
141,griffith,90,US,1580063548,86,41.53,-87.42,35.6,10.29
142,saint george,1,US,1580063548,46,37.1,-113.58,51.8,3.2
143,cabinda,75,AO,1580063548,83,-5.55,12.2,84.2,6.93
144,soe,98,ID,1580063548,91,-9.86,124.28,75.9,3.02
145,zheleznodorozhnyy,75,RU,1580063548,92,55.75,38.0,32.0,13.42
146,northam,20,GB,1580063548,93,51.03,-4.22,46.99,6.93
147,kahului,20,US,1580063548,82,20.89,-156.47,73.0,8.05
148,sivaki,70,RU,1580063549,97,52.63,126.75,-10.44,5.84
149,aripuana,56,BR,1580063549,71,-9.17,-60.63,87.39,5.14
150,jamestown,90,US,1580063335,92,42.1,-79.24,34.0,10.29
151,guarapari,40,BR,1580063549,74,-20.67,-40.5,81.0,8.05
152,richards bay,16,ZA,1580063549,86,-28.78,32.04,79.7,31.83
153,otaki,100,NZ,1580063549,93,-40.76,175.15,66.99,24.16
154,aklavik,75,CA,1580063549,68,68.22,-135.01,-20.2,4.7
155,qurayyat,0,SA,1580063550,57,31.33,37.34,48.2,2.24
156,cidreira,4,BR,1580063400,69,-30.18,-50.21,78.33,9.73
157,rongcheng,100,CN,1580063550,98,30.63,117.85,37.33,2.66
158,hambantota,85,LK,1580063550,75,6.12,81.12,78.84,21.65
159,carman,90,CA,1580063550,100,49.5,-98.0,21.0,12.75
160,karratha,0,AU,1580063550,76,-20.74,116.85,84.72,15.55
161,kudahuvadhoo,99,MV,1580063551,74,2.67,72.89,81.46,11.01
162,manono,100,CD,1580063551,92,-7.3,27.42,72.0,1.74
163,caluquembe,100,AO,1580063551,88,-13.78,14.68,65.34,2.15
164,paamiut,42,GL,1580063551,66,61.99,-49.67,15.98,18.57
165,chenzhou,100,CN,1580063551,88,25.8,113.03,38.71,5.84
166,half moon bay,75,US,1580063398,87,37.46,-122.43,59.0,8.05
167,lorengau,100,PG,1580063551,78,-2.02,147.27,83.61,7.7
168,kruisfontein,20,ZA,1580063552,71,-34.0,24.73,58.77,19.89
169,vestmanna,70,FO,1580063552,62,62.16,-7.17,33.8,19.46
170,livno,75,BA,1580063552,87,43.83,17.01,50.0,6.93
171,albanel,90,CA,1580063541,86,48.88,-72.45,34.0,3.04
172,chester,90,US,1580063356,60,40.13,-75.87,46.99,11.41
173,faenza,75,IT,1580063552,87,44.29,11.88,48.0,1.12
174,swan hill,15,AU,1580063552,81,-35.34,143.55,61.0,1.99
175,lavrentiya,0,RU,1580063553,81,65.58,-171.0,-14.71,1.41
176,anadyr,100,RU,1580063553,72,64.75,177.48,14.0,13.42
177,sioux lookout,90,CA,1580063553,92,50.1,-91.92,19.4,6.93
178,vanimo,100,PG,1580063553,81,-2.67,141.3,82.63,15.17
179,georgetown,20,MY,1580063288,88,5.41,100.34,82.4,2.24
180,kodinsk,53,RU,1580063553,95,58.69,99.18,10.26,6.42
181,oxchuc,0,MX,1580063553,45,16.85,-92.42,78.21,3.85
182,nanortalik,100,GL,1580063334,72,60.14,-45.24,22.21,18.99
183,jaque,92,PA,1580063554,61,7.52,-78.17,82.85,3.09
184,cravo norte,21,CO,1580063554,30,6.3,-70.2,96.44,8.86
185,malakal,0,SS,1580063551,19,9.53,31.66,76.68,6.2
186,indapur,0,IN,1580063555,54,18.3,73.25,68.22,0.56
187,superior,90,US,1580063527,86,46.72,-92.1,30.0,6.93
188,sur,14,OM,1580063556,64,22.57,59.53,67.21,6.78
189,edson,1,CA,1580063426,85,53.58,-116.44,12.2,2.66
190,kutum,0,SD,1580063556,16,14.2,24.67,55.72,7.85
191,bhan,94,PK,1580063556,56,26.56,67.72,68.86,8.52
192,tondano,40,ID,1580063556,100,1.3,124.91,73.4,1.36
193,wattegama,100,LK,1580063556,88,6.8,81.48,69.66,4.12
194,san carlos,16,VE,1580063556,28,9.66,-68.58,99.5,3.13
195,chingirlau,93,KZ,1580063556,94,51.09,54.08,20.05,11.07
196,vila velha,40,BR,1580063472,74,-20.33,-40.29,81.0,8.05
197,pacific grove,90,US,1580063557,93,36.62,-121.92,59.0,4.7
198,osorno,20,CL,1580063557,46,-40.57,-73.15,73.4,5.82
199,coihaique,41,CL,1580063557,34,-45.58,-72.07,66.2,6.93
200,hithadhoo,99,MV,1580063557,82,-0.6,73.08,80.69,10.02
201,coolum beach,85,AU,1580063560,88,-26.53,153.1,75.99,2.24
202,new norfolk,90,AU,1580063459,48,-42.78,147.06,60.8,6.93
203,carnaiba,82,BR,1580063560,28,-8.7,-37.67,95.47,9.44
204,jacareacanga,68,BR,1580063444,45,-6.22,-57.75,94.59,3.04
205,talnakh,75,RU,1580063561,84,69.49,88.4,-0.4,13.42
206,iqaluit,20,CA,1580063561,67,63.75,-68.51,-27.0,13.87
207,lasa,40,IT,1580063561,97,46.62,10.7,35.6,1.14
208,lata,20,PT,1580063526,76,40.16,-8.33,57.0,6.93
209,leningradskiy,100,RU,1580063480,94,69.38,178.42,-9.18,11.63
210,cockburn town,54,TC,1580063561,77,21.46,-71.14,75.2,12.37
211,baykit,79,RU,1580063525,96,61.67,96.37,2.52,3.42
212,tikapur,53,NP,1580063562,81,28.5,81.13,55.96,2.66
213,rorvik,75,NO,1580063562,93,64.86,11.24,42.8,6.93
214,san andres,20,CO,1580063493,58,12.58,-81.7,84.2,9.17
215,deputatskiy,97,RU,1580063562,91,69.3,139.9,-33.07,2.51
216,mirandela,85,PT,1580063562,96,41.49,-7.19,43.0,3.22
217,leh,0,IN,1580063562,66,34.17,77.58,-9.67,6.78
218,pangnirtung,5,CA,1580063562,60,66.15,-65.71,-27.4,2.21
219,butaritari,97,KI,1580063563,73,3.07,172.79,84.9,13.18
220,yarmouth,1,US,1580063417,83,41.71,-70.23,50.0,14.99
221,olafsvik,100,IS,1580063549,88,64.89,-23.71,31.14,8.25
222,nacala,60,MZ,1580063563,95,-14.54,40.67,74.77,3.42
223,san rafael,0,AR,1580063563,16,-34.62,-68.33,91.06,12.12
224,manaure,20,CO,1580063563,66,11.78,-72.44,84.2,13.87
225,victoria,40,HK,1580063421,71,22.29,114.16,57.0,12.75
226,fairbanks,90,US,1580063317,98,64.84,-147.72,-14.01,2.21
227,mangan,90,IN,1580063564,61,27.52,88.53,32.38,3.13
228,belawan,40,ID,1580063564,88,3.78,98.68,80.6,4.7
229,nikolskoye,75,RU,1580063564,80,59.7,30.79,33.8,11.18
230,taoudenni,47,ML,1580063564,17,22.68,-3.98,83.03,8.68
231,itainopolis,73,BR,1580063564,48,-7.45,-41.48,92.07,1.52
232,miraflores,40,MX,1580063564,34,19.22,-98.81,75.2,3.36
233,henties bay,0,NA,1580063564,84,-22.12,14.28,66.99,5.01
234,mwinilunga,100,ZM,1580063565,94,-11.74,24.43,65.52,2.75
235,rio brilhante,0,BR,1580063492,40,-21.8,-54.55,93.65,0.45
236,tyssedal,100,NO,1580063565,86,60.12,6.56,46.0,14.0
237,kapaa,40,US,1580063565,88,22.08,-159.32,73.4,9.17
238,najran,5,SA,1580063565,38,17.49,44.13,59.0,11.41
239,fort nelson,90,CA,1580063565,84,58.81,-122.7,6.8,3.36
240,zemio,58,CF,1580063565,26,5.03,25.14,77.86,4.0
241,trat,100,TH,1580063565,63,12.5,102.5,82.0,0.67
242,bullas,20,ES,1580063566,58,38.05,-1.67,57.0,5.82
243,longyearbyen,0,SJ,1580063566,84,78.22,15.64,-0.4,2.06
244,sabzevar,0,IR,1580063566,65,36.21,57.68,34.5,1.77
245,padang,100,ID,1580063566,97,-0.95,100.35,68.76,2.93
246,sawakin,0,SD,1580063566,61,19.11,37.33,72.03,20.96
247,qaqortoq,100,GL,1580063343,66,60.72,-46.03,12.2,3.36
248,porto novo,20,BJ,1580063567,54,6.5,2.6,82.4,4.7
249,flinders,90,AU,1580063567,77,-34.58,150.86,73.99,6.93
250,chuy,33,UY,1580063567,51,-33.7,-53.46,85.89,6.49
251,kyaikkami,33,MM,1580063567,45,16.08,97.57,78.01,7.85
252,serpukhov,75,RU,1580063567,93,54.92,37.41,32.0,15.66
253,nerchinskiy zavod,85,RU,1580063567,99,51.31,119.61,-10.34,2.95
254,lagoa,100,PT,1580063567,80,39.05,-27.98,60.76,14.34
255,jurm,87,AF,1580063567,58,36.86,70.83,14.27,7.65
256,alofi,15,NU,1580063568,94,-19.06,-169.92,78.8,4.7
257,rumoi,100,JP,1580063568,73,43.93,141.64,30.18,21.43
258,holland,90,US,1580063377,93,42.79,-86.11,36.0,9.17
259,yueyang,56,CN,1580063568,87,29.33,113.09,36.23,9.89
260,luebo,100,CD,1580063568,63,-5.35,21.42,80.85,0.89
261,biak,53,ID,1580063568,83,-0.91,122.88,81.52,6.11
262,ust-kulom,99,RU,1580063568,97,61.69,53.69,-1.25,4.23
263,samfya,89,ZM,1580063569,96,-11.36,29.56,65.26,3.78
264,karla,90,EE,1580063569,86,59.37,24.93,41.0,11.41
265,zalari,67,RU,1580063569,94,53.56,102.51,11.19,5.5
266,brus laguna,43,HN,1580063569,49,15.75,-84.48,84.11,3.06
267,san buenaventura,0,MX,1580063569,28,27.08,-101.53,77.16,7.61
268,kopavogur,75,IS,1580063569,80,64.11,-21.91,35.6,12.75
269,mehran,0,IR,1580063569,86,33.12,46.16,33.8,2.24
270,san patricio,75,MX,1580063570,74,19.22,-104.7,86.0,6.93
271,avarua,100,CK,1580063570,88,-21.21,-159.78,80.6,11.41
272,inirida,69,CO,1580063570,45,3.87,-67.92,94.89,1.61
273,gilgit,0,PK,1580063432,66,35.92,74.31,7.0,6.15
274,sabang,40,ID,1580063570,72,5.89,95.32,82.13,10.85
275,wanxian,51,CN,1580063570,76,30.8,108.39,41.18,4.18
276,saint-georges,20,GD,1580063275,70,12.06,-61.75,84.2,18.34
277,chernyshevskiy,99,RU,1580063546,93,63.01,112.47,11.34,8.39
278,alyangula,40,AU,1580063571,89,-13.85,136.42,84.2,11.41
279,puri,40,IN,1580063284,88,19.8,85.85,64.4,3.0
280,amahai,89,ID,1580063571,79,-3.33,128.92,82.31,5.99
281,isiolo,100,KE,1580063571,72,0.35,37.58,73.13,1.57
282,wanaka,100,NZ,1580063572,70,-44.7,169.15,62.01,1.01
283,cruzeiro do sul,25,BR,1580063572,46,-29.51,-51.99,91.99,5.01
284,eureka,90,US,1580063572,87,40.8,-124.16,55.0,5.82
285,evensk,100,RU,1580063572,86,61.95,159.23,14.2,13.15
286,charagua,13,BO,1580063572,25,-19.8,-63.22,96.8,3.36
287,takoradi,22,GH,1580063572,58,4.88,-1.76,82.76,7.29
288,harper,33,LR,1580063573,74,4.38,-7.72,82.99,7.18
289,taketa,100,JP,1580063573,76,32.97,131.38,48.0,20.0
290,luderitz,29,NA,1580063573,49,-26.65,15.16,73.4,28.86
291,kununurra,64,AU,1580063573,88,-15.77,128.73,80.6,4.7
292,brokopondo,38,SR,1580063573,74,4.75,-55.17,84.06,4.5
293,hami,97,CN,1580063573,67,42.8,93.45,11.26,2.71
294,warrington,20,GB,1580063573,93,53.39,-2.58,43.0,3.36
295,fredericton,90,CA,1580063301,100,45.95,-66.67,43.0,5.82
296,angoram,100,PG,1580063574,98,-4.06,144.07,74.79,4.54
297,lompoc,90,US,1580063574,100,34.64,-120.46,62.01,12.75
298,pringsewu,98,ID,1580063574,98,-5.36,104.97,72.32,1.59
299,faya,0,SA,1580063574,34,18.39,42.45,53.6,8.05
300,drovyanaya,38,RU,1580063574,75,51.58,113.03,-13.0,0.98
301,bengkulu,100,ID,1580063575,88,-3.8,102.27,75.56,3.36
302,porto velho,40,BR,1580063575,59,-8.76,-63.9,91.4,4.7
303,beringovskiy,100,RU,1580063575,87,63.05,179.32,13.86,4.23
304,rize,20,TR,1580063575,45,40.9,40.89,29.52,6.02
305,mezhdurechensk,49,RU,1580063575,81,53.69,88.06,7.88,3.49
306,nishihara,75,JP,1580063575,94,26.18,127.76,73.4,14.99
307,khorostkiv,80,UA,1580063576,77,49.21,25.92,31.78,4.99
308,mana,56,GF,1580063576,82,5.66,-53.78,82.02,6.02
309,severo-yeniseyskiy,54,RU,1580063576,93,60.37,93.04,6.17,6.31
310,lithakia,90,GR,1580063576,87,37.72,20.83,60.8,19.46
311,akdepe,62,TM,1580063576,69,42.06,59.38,37.4,16.11
312,pont-saint-esprit,75,FR,1580063576,93,44.25,4.65,50.0,2.24
313,suntar,96,RU,1580063577,84,62.14,117.63,16.3,8.68
314,aykhal,90,RU,1580063535,74,66.0,111.5,-22.0,4.47
315,shakawe,64,BW,1580063577,44,-18.37,21.85,78.46,1.59
316,beloha,34,MG,1580063476,61,-25.17,45.05,73.92,13.33
317,bathsheba,20,BB,1580063577,62,13.22,-59.52,84.2,10.29
318,touros,40,BR,1580063577,55,-5.2,-35.46,89.6,14.99
319,billings,20,US,1580063371,51,45.78,-108.5,43.0,9.17
320,komarikhinskiy,75,RU,1580063578,85,58.1,57.12,12.2,8.95
321,grindavik,75,IS,1580063578,80,63.84,-22.43,35.6,1.12
322,andenes,100,NO,1580063578,57,69.31,16.12,23.0,23.04
323,airai,8,TL,1580063417,92,-8.93,125.41,67.96,1.9
324,cururupu,100,BR,1580063578,86,-1.83,-44.87,83.3,4.52
325,kharhial,0,IN,1580063578,36,20.28,82.77,64.36,1.14
326,tagusao,70,PH,1580063579,91,9.19,117.81,74.21,2.98
327,mehamn,90,NO,1580063428,73,71.04,27.85,24.8,16.11
328,koundara,26,GN,1580063579,4,12.48,-13.3,100.54,5.93
329,haines junction,100,CA,1580063579,98,60.75,-137.51,-12.6,4.74
330,artyom,29,AZ,1580063579,100,40.47,50.33,37.4,4.7
331,vao,100,NC,1580063515,83,-22.67,167.48,77.36,14.16
332,odweyne,72,SO,1580063579,73,9.41,45.06,67.42,17.36
333,khandyga,0,RU,1580063579,90,62.67,135.6,-46.7,2.82
334,ahipara,0,NZ,1580063470,100,-35.17,173.17,63.0,6.42
335,sangar,58,RU,1580063580,70,63.92,127.47,-23.04,16.26
336,port blair,71,IN,1580063580,68,11.67,92.75,77.47,10.36
337,alamor,40,EC,1580063580,62,-4.02,-80.02,89.6,13.87
338,sabla,30,NG,1580063580,10,12.75,4.71,77.61,9.69
339,monrovia,75,LR,1580063580,62,6.3,-10.8,89.6,3.36
340,daru,47,PG,1580063580,91,-9.08,143.21,76.44,3.2
341,kolosovka,100,RU,1580063580,92,56.47,73.61,17.87,16.75
342,tawang,99,IN,1580063580,93,27.58,91.87,17.26,3.13
343,mae sai,0,TH,1580063581,87,20.43,99.88,55.4,2.24
344,santa cruz del sur,0,CU,1580063581,74,20.71,-78.0,75.52,9.08
345,ca mau,0,VN,1580063581,95,9.18,105.15,71.04,3.53
346,kodiak,75,US,1580063581,56,57.79,-152.41,15.8,12.75
347,pangkalanbuun,92,ID,1580063581,96,-2.68,111.62,75.61,0.89
348,manacapuru,40,BR,1580063581,66,-3.3,-60.62,89.6,6.93
349,silver city,1,US,1580063581,33,32.77,-108.28,60.01,13.87
350,ola,98,RU,1580063582,89,59.58,151.28,-4.81,13.18
351,port pirie,0,AU,1580063582,82,-33.18,138.02,68.0,12.75
352,nyurba,100,RU,1580063582,97,63.28,118.33,-8.86,4.79
353,matagami,90,CA,1580063345,100,49.75,-77.63,26.6,5.82
354,sungaipenuh,100,ID,1580063582,98,-2.08,101.38,64.47,0.07
355,saldanha,0,ZA,1580063582,40,-33.01,17.94,68.0,14.99
356,morondava,98,MG,1580063583,88,-20.28,44.28,76.93,1.68
357,awjilah,50,LY,1580063583,33,29.11,21.29,58.21,8.77
358,ambilobe,100,MG,1580063583,93,-13.2,49.05,75.38,6.42
359,hendek,11,TR,1580063583,100,40.8,30.75,33.8,4.81
360,gat,35,IL,1580063583,76,31.61,34.76,53.01,3.36
361,jaragua,75,BR,1580063583,78,-15.76,-49.33,75.2,7.9
362,mandalgovi,0,MN,1580063584,62,45.76,106.27,12.25,9.37
363,eura,90,FI,1580063584,74,61.13,22.08,34.0,9.17
364,bayonet point,1,US,1580063584,42,28.33,-82.68,68.0,4.7
365,inverell,95,AU,1580063584,86,-29.78,151.12,73.0,1.01
366,ubinskoye,100,RU,1580063584,89,55.31,79.68,11.89,16.13
367,chapais,90,CA,1580063584,92,49.78,-74.85,26.6,8.05
368,manggar,59,ID,1580063584,78,-2.88,108.27,82.15,6.85
369,roswell,90,US,1580063340,52,34.02,-84.36,53.01,9.17
370,ciputat,75,ID,1580063526,83,-6.24,106.7,79.0,5.82
371,kem,50,RU,1580063585,94,64.96,34.58,12.52,8.46
372,bismarck,90,US,1580063553,86,46.81,-100.78,30.2,11.41
373,khandagayty,100,RU,1580063585,86,50.73,92.05,-2.54,3.31
374,seidu,33,SL,1580063585,10,9.02,-10.6,91.49,5.82
375,ostrovnoy,92,RU,1580063585,99,68.05,39.51,-3.17,7.65
376,farmington,1,US,1580063292,64,36.73,-108.22,39.0,4.47
377,carlsbad,90,US,1580063586,82,33.16,-117.35,62.01,3.53
378,portland,75,US,1580063506,76,45.52,-122.68,52.0,10.29
379,lyubim,100,RU,1580063586,95,58.36,40.68,24.71,7.47
380,batagay-alyta,0,RU,1580063586,40,67.8,130.41,-32.06,5.03
381,saint-francois,90,FR,1580063586,87,46.42,3.91,46.0,3.36
382,ulefoss,90,NO,1580063586,100,59.28,9.26,44.01,17.22
383,kysyl-syr,100,RU,1580063586,94,63.9,122.76,-24.75,13.18
384,smidovich,0,RU,1580063586,78,48.6,133.82,1.31,11.48
385,kieta,100,PG,1580063587,76,-6.22,155.63,80.1,5.73
386,dakoro,68,NE,1580063587,9,14.51,6.76,72.9,11.25
387,totma,100,RU,1580063571,94,59.97,42.76,14.45,4.09
388,luena,96,AO,1580063587,92,-11.78,19.92,67.82,3.33
389,bukama,100,CD,1580063587,92,-9.2,25.85,72.23,2.15
390,baherden,6,TM,1580063587,57,38.44,57.43,37.47,3.24
391,rapid valley,1,US,1580063587,42,44.06,-103.15,48.0,20.8
392,bouna,80,CI,1580063588,6,9.27,-3.0,88.38,3.87
393,birin,31,NP,1580063588,91,26.89,88.07,38.21,2.82
394,copiapo,2,CL,1580063588,50,-27.37,-70.33,78.8,18.34
395,sechura,57,PE,1580063588,87,-5.56,-80.82,74.61,14.45
396,broken hill,0,AU,1580063462,36,-31.95,141.43,75.2,12.75
397,amga,41,RU,1580063588,90,60.9,131.96,-32.06,3.83
398,norman wells,75,CA,1580063588,82,65.28,-126.83,-20.2,3.36
399,manama,1,BH,1580063589,63,26.22,50.58,60.8,20.8
400,pochutla,40,MX,1580063589,62,15.74,-96.47,86.0,13.09
401,antofagasta,75,CL,1580063589,78,-23.65,-70.4,73.4,18.34
402,sarkand,50,KZ,1580063589,79,45.41,79.92,17.74,2.68
403,roma,90,US,1580063348,93,43.21,-75.46,39.0,4.7
404,rahuri,0,IN,1580063589,36,19.38,74.65,71.11,6.2
405,todos santos,5,MX,1580063589,49,23.45,-110.22,73.99,3.36
406,destin,90,US,1580063408,54,30.39,-86.5,57.2,3.36
407,tokuyama,75,JP,1580063589,53,34.05,131.82,51.8,16.11
408,pevek,100,RU,1580063590,93,69.7,170.31,-5.98,1.05
409,delijan,0,IR,1580063590,44,33.99,50.68,32.49,2.51
410,zhangye,0,CN,1580063590,53,38.93,100.45,21.61,2.33
411,bulgan,66,MN,1580063590,61,48.81,103.53,7.97,4.68
412,jumla,44,NP,1580063590,71,29.27,82.18,23.81,4.47
413,yerbogachen,95,RU,1580063590,87,61.28,108.01,8.47,14.29
414,kholm-zhirkovskiy,100,RU,1580063590,93,55.52,33.47,35.46,14.05
415,bama,0,NG,1580063590,28,11.52,13.69,70.25,11.34
416,banjar,40,ID,1580063591,83,-8.19,114.97,84.2,5.82
417,mvuma,1,ZW,1580063591,57,-19.28,30.53,71.37,7.61
418,grants,1,US,1580063591,56,35.15,-107.85,42.8,5.82
419,saint-augustin,100,CA,1580063591,92,51.23,-58.65,26.2,8.57
420,menongue,44,AO,1580063345,89,-14.66,17.69,67.26,6.26
421,takefu,75,JP,1580063592,60,35.9,136.17,42.8,16.11
422,atambua,17,ID,1580063592,90,-9.11,124.89,76.23,1.88
423,guayaramerin,40,BO,1580063592,59,-10.84,-65.36,93.2,5.82
424,isangel,89,VU,1580063413,84,-19.55,169.27,77.83,13.0
425,lienz,92,AT,1580063592,88,46.83,12.77,33.01,2.75
426,medvedevo,40,RU,1580063592,73,56.63,47.8,21.2,11.18
427,ayagoz,0,KZ,1580063593,78,47.97,80.44,5.38,5.37
428,moose factory,90,CA,1580063593,92,51.26,-80.61,24.8,9.17
429,torrington,75,US,1580063314,80,41.8,-73.12,46.99,13.87
430,carballo,40,ES,1580063593,81,43.21,-8.69,55.99,20.8
431,borogontsy,41,RU,1580063593,91,62.67,131.17,-33.92,9.31
432,avesta,100,SE,1580063593,75,60.15,16.17,42.8,5.82
433,khash,78,IR,1580063593,59,28.22,61.22,45.28,8.63
434,kurilsk,94,RU,1580063594,83,45.23,147.88,17.44,19.33
435,eatonton,1,US,1580063594,46,33.33,-83.39,55.99,6.93
436,aksarka,83,RU,1580063594,100,66.56,67.8,-13.74,1.57
437,hofn,75,IS,1580063594,86,64.25,-15.21,33.8,5.82
438,gallup,1,US,1580063327,60,35.53,-108.74,43.0,3.36
439,tommot,100,RU,1580063594,95,58.96,126.29,11.79,3.94
440,berlevag,75,NO,1580063594,67,70.86,29.09,17.6,18.34
441,los llanos de aridane,20,ES,1580063437,68,28.66,-17.92,66.2,4.7
442,palaikastron,72,GR,1580063595,67,35.2,26.25,59.0,4.0
443,bilibino,100,RU,1580063487,91,68.05,166.44,-2.11,2.1
444,kwinana,1,AU,1580063439,47,-32.25,115.77,82.4,11.41
445,aitape,100,PG,1580063595,81,-3.14,142.35,81.84,14.07
446,bogovarovo,85,RU,1580063595,98,58.98,47.02,-0.98,4.05
447,the valley,20,AI,1580063595,78,18.22,-63.06,82.0,10.29
448,constitucion,21,CL,1580063595,62,-35.33,-72.42,72.14,12.01
449,acapulco,5,MX,1580063557,58,16.86,-99.89,84.2,9.17
450,lake city,1,US,1580063595,32,30.19,-82.64,64.99,3.36
451,sao francisco de assis,0,BR,1580063596,33,-29.55,-55.13,92.82,10.89
452,khani,3,GE,1580063596,80,41.96,42.96,32.0,2.24
453,basco,44,PH,1580063596,72,20.45,121.97,76.59,21.0
454,alice springs,76,AU,1580063596,18,-23.7,133.88,73.4,3.36
455,tuy hoa,100,VN,1580063596,83,13.08,109.3,74.91,20.67
456,poum,94,NC,1580063596,81,-20.23,164.02,79.57,23.91
457,rio grande,40,BR,1580063596,52,-32.03,-52.1,93.2,16.11
458,ascension,90,US,1580063597,93,30.22,-90.9,54.0,6.93
459,dzerzhinsk,75,RU,1580063597,73,56.24,43.46,27.0,8.95
460,laguna,75,US,1580063597,82,38.42,-121.42,62.01,9.17
461,puerto ayacucho,20,VE,1580063597,44,5.66,-67.62,95.0,6.93
462,quatre cocos,40,MU,1580063597,78,-20.21,57.76,78.8,9.17
463,carnarvon,0,AU,1580063597,88,-24.87,113.63,77.0,12.75
464,krasnogvardeyets,100,RU,1580063597,87,52.68,52.36,17.49,16.28
465,susanville,75,US,1580063598,75,40.42,-120.65,44.6,2.91
466,astoria,90,US,1580063598,81,46.19,-123.83,52.0,13.87
467,yabelo,89,ET,1580063598,58,4.88,38.08,72.82,8.43
468,fuyang,100,CN,1580063483,97,32.9,115.82,35.44,5.91
469,biskamzha,85,RU,1580063598,98,53.45,89.53,1.49,0.63
470,homer,75,US,1580063431,59,59.64,-151.55,10.4,4.7
471,hirara,20,JP,1580063310,78,24.8,125.28,70.16,24.34
472,neryungri,100,RU,1580063599,91,56.67,124.65,3.6,2.93
473,nagato,75,JP,1580063599,70,34.38,131.2,48.2,23.04
474,adrasmon,90,TJ,1580063599,86,40.65,69.99,37.4,13.42
475,palmer,75,US,1580063599,80,42.16,-72.33,46.4,13.87
476,pirenopolis,75,BR,1580063599,78,-15.85,-48.96,75.2,8.84
477,bahir dar,0,ET,1580063600,24,11.59,37.39,64.08,7.43
478,magistralnyy,100,RU,1580063600,94,56.17,107.45,17.37,3.06
479,novopokrovka,75,UA,1580063600,86,49.84,36.55,30.2,6.71
480,taksimo,71,RU,1580063600,96,56.34,114.88,-11.2,0.85
481,tocopilla,2,CL,1580063600,44,-22.09,-70.2,76.73,10.04
482,nanga eboko,7,CM,1580063601,22,4.68,12.37,75.76,0.54
483,jiujiang,100,CN,1580063601,93,29.73,115.98,39.04,5.41
484,chabahar,9,IR,1580063601,57,25.29,60.64,63.79,19.37
485,sisimiut,100,GL,1580063601,95,66.94,-53.67,2.97,4.14
486,kulhudhuffushi,96,MV,1580063601,68,6.62,73.07,82.78,3.83
487,asau,0,RO,1580063601,69,46.43,26.4,36.0,8.05
488,lyudinovo,99,RU,1580063601,86,53.87,34.45,33.8,12.71
489,nouadhibou,0,MR,1580063602,50,20.93,-17.03,75.2,9.17
490,mocuba,30,MZ,1580063602,96,-16.84,36.99,74.21,4.32
491,katherine,40,AU,1580063602,69,-14.47,132.27,82.4,8.05
492,maraa,58,BR,1580063602,41,-1.83,-65.37,99.5,1.9
493,massakory,0,TD,1580063602,12,13.0,15.73,73.8,10.04
494,jember,29,ID,1580063405,96,-8.17,113.7,68.9,2.39
495,meulaboh,98,ID,1580063435,77,4.14,96.13,83.05,4.41
496,kupang,63,ID,1580063346,74,-10.17,123.58,84.02,5.39
497,linxia,0,CN,1580063602,68,35.6,103.21,14.83,2.35
498,pokosnoye,83,RU,1580063603,92,55.53,101.05,8.82,1.41
499,dingli,99,MT,1580063603,87,35.86,14.38,59.0,1.12
500,alexandria,20,EG,1580063603,66,31.22,29.96,55.4,3.36
501,conceicao do araguaia,90,BR,1580063603,66,-8.26,-49.26,86.49,5.03
502,salisbury,100,GB,1580063357,93,51.07,-1.8,50.0,8.05
503,chokurdakh,100,RU,1580063603,96,70.63,147.92,-20.47,5.35
504,berbera,50,SO,1580063603,79,10.44,45.01,78.13,6.53
505,mitsamiouli,20,KM,1580063604,74,-11.38,43.28,82.4,6.93
506,road town,75,VG,1580063404,94,18.42,-64.62,80.6,9.17
507,waipawa,8,NZ,1580063604,93,-41.41,175.52,66.99,24.16
508,tamandare,0,BR,1580063604,78,-8.76,-35.1,81.97,11.54
509,moerai,88,PF,1580063604,72,-22.43,-151.33,80.08,6.71
510,alabaster,90,US,1580063418,70,33.24,-86.82,53.01,2.17
511,bayburt,0,TR,1580063604,61,40.26,40.23,12.27,1.66
512,bobo dioulasso,39,BF,1580063605,23,11.18,-4.3,87.8,5.82
513,kurchum,100,KZ,1580063605,96,48.57,83.65,15.93,4.07
514,teonthar,0,IN,1580063605,59,24.98,81.65,55.83,2.26
515,fare,42,PF,1580063605,74,-16.7,-151.02,82.51,10.51
516,jian,100,CN,1580063605,89,27.12,114.98,43.07,4.94
517,kebumen,84,ID,1580063605,90,-7.67,109.65,77.22,1.03
518,thinadhoo,100,MV,1580063606,78,0.53,72.93,81.86,8.48
519,nabire,99,ID,1580063606,98,-3.37,135.48,74.35,1.1
520,hamilton,75,US,1580063430,69,39.18,-84.53,39.0,10.29
521,kuryk,100,KZ,1580063607,71,43.2,51.65,43.27,28.86
522,coahuayana,40,MX,1580063607,53,18.73,-103.68,75.2,6.13
523,san policarpo,36,PH,1580063607,88,12.18,125.51,78.13,8.41
524,naliya,0,IN,1580063581,74,23.27,68.83,68.74,12.19
525,bubaque,59,GW,1580063607,46,11.28,-15.83,85.06,2.15
526,kropotkin,91,RU,1580063378,87,45.44,40.58,36.03,4.56
527,zhigansk,79,RU,1580063608,76,66.77,123.37,-30.33,3.71
528,abu samrah,71,SY,1580063609,85,35.3,37.18,45.64,7.61
529,port-cartier,90,CA,1580063321,92,50.03,-66.87,26.01,17.22
530,champerico,20,GT,1580063609,52,14.3,-91.92,87.8,4.7
531,saint-pierre,75,RE,1580063609,69,-21.34,55.48,78.8,17.22
532,huntly,100,GB,1580063609,80,57.45,-2.79,37.99,9.17
533,kaitangata,90,NZ,1580063610,86,-46.28,169.85,56.84,9.73
534,seydi,7,TM,1580063610,46,39.48,62.91,34.45,7.02
535,batemans bay,27,AU,1580063610,86,-35.72,150.18,66.99,0.78
536,chardara,14,KZ,1580063610,82,41.25,67.97,35.44,6.33
537,piacabucu,4,BR,1580063473,71,-10.41,-36.43,85.12,15.37
538,camanducaia,20,BR,1580063610,30,-22.76,-46.14,86.0,8.05
539,mangrol,0,IN,1580063611,77,21.12,70.12,73.65,12.12
540,monte alegre,100,BR,1580063484,51,-2.01,-54.07,90.03,3.91
541,cairns,90,AU,1580063611,94,-16.92,145.77,79.0,3.36
542,louis trichardt,52,ZA,1580063611,51,-23.04,29.9,75.54,2.68
543,vostok,84,RU,1580063611,97,46.49,135.88,-5.3,5.35
544,katsuura,75,JP,1580063611,61,35.13,140.3,44.6,10.29
545,almaznyy,13,RU,1580063451,80,48.04,40.05,30.2,6.71
546,kargasok,96,RU,1580063523,92,59.06,80.86,7.83,10.33
547,sola,31,VU,1580063612,77,-13.88,167.55,82.15,13.42
548,yichun,0,CN,1580063612,85,47.7,128.9,1.74,2.28
549,oriximina,100,BR,1580063612,54,-1.77,-55.87,90.45,4.88
550,sao jose da coroa grande,0,BR,1580063612,78,-8.9,-35.15,81.97,11.54
551,lakes entrance,76,AU,1580063612,83,-37.88,147.98,64.0,6.98
552,vaxjo,90,SE,1580063612,100,56.88,14.81,39.99,9.17
553,butte,90,US,1580063613,87,39.65,-121.57,59.0,16.11
554,auki,16,SB,1580063613,74,-8.77,160.7,84.07,7.74
555,vila,75,PT,1580063613,81,42.03,-8.16,59.0,11.41
556,taltal,0,CL,1580063613,67,-25.4,-70.48,73.62,8.84
557,okhotsk,94,RU,1580063613,75,59.38,143.3,-10.71,12.19
558,rawson,11,AR,1580063613,58,-43.3,-65.1,60.13,17.45
559,batsfjord,75,NO,1580063613,67,70.63,29.72,19.4,18.34
