,City,Cloudiness,Country,Date,Humidity,Latitude,Longitude,Max Temperature,Wind Speed
0,tilichiki,100,RU,1579995998,84,60.47,166.1,25.5,18.05
1,busselton,19,AU,1579996013,42,-33.65,115.33,78.01,8.79
2,moussoro,0,TD,1579996025,17,13.64,16.49,61.05,13.6
3,rikitea,18,PF,1579995920,77,-23.12,-134.97,79.25,14.03
4,upernavik,78,GL,1579996026,95,72.79,-56.15,-13.83,6.85
5,vardo,100,NO,1579996027,70,70.37,31.11,23.18,28.57
6,kapaa,40,US,1579996013,78,22.08,-159.32,78.8,12.75
7,bluff,46,NZ,1579996027,51,-46.6,168.33,70.05,5.82
8,huarmey,99,PE,1579996027,64,-10.07,-78.15,76.78,6.24
9,onokhoy,0,RU,1579996027,75,51.93,108.07,-20.2,2.24
10,bredasdorp,31,ZA,1579995921,68,-34.53,20.04,64.4,12.75
11,abu samrah,0,SY,1579996032,56,35.3,37.18,38.28,8.23
12,atuona,62,PF,1579996032,78,-9.8,-139.03,80.78,15.21
13,puerto ayora,75,EC,1579996032,74,-0.74,-90.35,80.6,4.7
14,bandarbeyla,84,SO,1579996032,82,9.49,50.81,78.55,20.42
15,ghazipur,0,IN,1579996032,89,25.58,83.57,48.29,4.61
16,ushuaia,75,AR,1579995947,53,-54.8,-68.3,51.8,23.04
17,tambun,20,ID,1579996033,100,-6.26,107.07,79.0,1.39
18,manto,0,HN,1579996033,78,14.92,-86.38,63.73,3.29
19,broome,90,US,1579996033,99,42.25,-75.83,36.0,3.36
20,port hardy,75,CA,1579995926,81,50.7,-127.42,48.2,18.34
21,yar-sale,86,RU,1579996034,99,66.83,70.83,-4.4,5.35
22,uvalde,90,US,1579996034,88,29.37,-99.77,63.0,4.7
23,kaitangata,66,NZ,1579995822,80,-46.28,169.85,58.48,10.56
24,pangody,83,RU,1579996032,98,65.85,74.49,-2.52,3.24
25,norman wells,20,CA,1579996035,63,65.28,-126.83,-9.4,11.41
26,saskylakh,100,RU,1579996011,92,71.92,114.08,-20.0,17.58
27,ojinaga,1,MX,1579996035,28,29.57,-104.42,69.8,5.82
28,hithadhoo,100,MV,1579996023,79,-0.6,73.08,82.65,14.88
29,iqaluit,20,CA,1579995762,66,63.75,-68.51,-29.0,11.41
30,necochea,2,AR,1579996035,57,-38.55,-58.74,64.99,3.0
31,namibe,7,AO,1579996036,73,-15.2,12.15,74.95,11.05
32,nuristan,3,AF,1579996036,67,35.3,70.83,-7.37,7.45
33,barrow,1,US,1579996022,100,71.29,-156.79,-29.2,10.29
34,sinazongwe,0,ZM,1579996036,79,-17.26,27.46,75.29,4.36
35,vaini,90,TO,1579995923,88,-21.2,-175.2,80.6,11.41
36,castro,9,BR,1579996036,72,-24.79,-50.01,65.7,3.38
37,praia da vitoria,40,PT,1579996037,93,38.73,-27.07,53.6,5.23
38,jamestown,90,US,1579996037,86,42.1,-79.24,36.0,5.82
39,hambantota,62,LK,1579996037,73,6.12,81.12,78.12,20.98
40,ondjiva,51,AO,1579996037,56,-17.07,15.73,76.6,6.53
41,mataura,73,NZ,1579996011,61,-46.19,168.86,74.73,1.39
42,xining,0,CN,1579996037,77,36.62,101.77,10.15,4.61
43,pitea,98,SE,1579996037,92,65.32,21.48,23.0,3.36
44,hamilton,90,US,1579995910,94,39.18,-84.53,35.6,16.11
45,arraial do cabo,0,BR,1579996038,83,-22.97,-42.03,75.79,9.4
46,punta arenas,40,CL,1579995924,66,-53.15,-70.92,50.0,28.86
47,yellowknife,90,CA,1579996038,85,62.46,-114.35,10.4,6.93
48,hofn,87,IS,1579996038,91,64.25,-15.21,36.64,5.48
49,hobart,75,AU,1579995944,72,-42.88,147.33,73.0,9.17
50,khatanga,57,RU,1579996038,91,71.97,102.5,-24.14,2.89
51,verdun,8,FR,1579996038,97,49.25,5.33,36.0,1.99
52,bethel,90,US,1579996010,100,41.37,-73.41,51.8,4.76
53,malindi,100,KE,1579996039,92,-3.22,40.12,76.66,2.37
54,clarence town,38,AU,1579996039,66,-32.58,151.78,93.0,8.05
55,cape town,75,ZA,1579995925,82,-33.93,18.42,66.0,12.75
56,wanning,100,CN,1579996039,92,18.8,110.4,66.27,10.54
57,san cristobal,40,VE,1579996039,69,7.77,-72.22,80.6,2.24
58,acajutla,0,SV,1579996039,56,13.59,-89.83,80.01,6.15
59,alofi,95,NU,1579996040,83,-19.06,-169.92,84.2,9.17
60,moose factory,90,CA,1579996040,100,51.26,-80.61,24.8,3.36
61,mayo,75,US,1579996040,87,38.89,-76.51,46.99,4.7
62,safford,1,US,1579996040,42,32.83,-109.71,63.0,8.05
63,saint-philippe,79,RE,1579996013,78,-21.36,55.77,75.2,8.05
64,omsukchan,100,RU,1579996040,100,62.53,155.8,-30.5,9.44
65,ostrovnoy,65,RU,1579996040,99,68.05,39.51,0.63,8.19
66,saint-pierre,87,RE,1579996041,78,-21.34,55.48,75.2,8.05
67,north bend,90,US,1579996041,100,43.41,-124.22,57.0,6.93
68,hasaki,75,JP,1579996041,100,35.73,140.83,39.2,2.24
69,avarua,99,CK,1579996041,83,-21.21,-159.78,84.2,10.29
70,klaksvik,100,FO,1579996042,87,62.23,-6.59,44.6,10.29
71,ca mau,83,VN,1579996042,94,9.18,105.15,71.92,2.98
72,hualmay,94,PE,1579995957,73,-11.1,-77.61,73.54,3.8
73,silute,28,LT,1579996042,93,55.35,21.48,37.38,8.81
74,moindou,75,NC,1579996042,51,-21.69,165.68,86.0,8.05
75,luoyang,100,CN,1579996042,95,34.68,112.45,34.52,4.38
76,tigil,100,RU,1579996043,80,57.8,158.67,27.34,21.39
77,batagay,1,RU,1579996043,94,67.63,134.63,-42.81,2.28
78,esperance,86,AU,1579996043,88,-33.87,121.9,64.4,8.05
79,fort pierce,1,US,1579996043,51,27.45,-80.33,66.2,5.1
80,lorengau,12,PG,1579995928,73,-2.02,147.27,83.16,4.23
81,north battleford,90,CA,1579996043,92,52.78,-108.28,32.0,3.36
82,new norfolk,75,AU,1579995937,72,-42.78,147.06,73.0,9.17
83,kapuskasing,90,CA,1579995836,100,49.42,-82.43,28.4,4.7
84,kirchhundem,87,DE,1579996044,93,51.1,8.1,36.0,2.24
85,bolkhov,50,RU,1579996044,80,53.44,36.0,28.92,12.91
86,jalu,12,LY,1579996044,52,29.03,21.55,53.08,8.68
87,evensk,100,RU,1579995927,84,61.95,159.23,14.25,18.14
88,atasu,100,KZ,1579996044,96,48.68,71.64,6.8,14.0
89,ponta do sol,20,PT,1579996044,67,32.67,-17.1,59.0,8.05
90,port lincoln,41,AU,1579996044,67,-34.73,135.87,68.59,6.06
91,touros,75,BR,1579996044,83,-5.2,-35.46,82.4,4.7
92,saldanha,29,ZA,1579996033,82,-33.01,17.94,62.6,3.36
93,sur,4,OM,1579995866,82,22.57,59.53,67.23,4.74
94,innisfail,100,AU,1579996045,68,-17.53,146.03,86.0,2.75
95,lubbock,20,US,1579995793,22,33.6,-101.83,64.4,16.11
96,san patricio,75,MX,1579996045,74,19.22,-104.7,84.2,11.41
97,butaritari,12,KI,1579996045,72,3.07,172.79,85.03,10.56
98,port augusta,90,AU,1579996046,73,-32.5,137.77,80.01,11.41
99,kavaratti,88,IN,1579996046,67,10.57,72.64,80.8,3.0
100,airai,100,TL,1579996046,76,-8.93,125.41,76.33,1.03
101,kamenka,79,RU,1579996046,85,51.32,42.77,35.01,8.99
102,bambous virieux,40,MU,1579995941,83,-20.34,57.76,77.0,13.87
103,antalaha,100,MG,1579996046,78,-14.9,50.28,80.56,16.49
104,kodiak,90,US,1579996046,62,57.79,-152.41,19.4,23.04
105,baykit,100,RU,1579996047,88,61.67,96.37,13.75,8.08
106,carnarvon,15,AU,1579996047,78,-24.87,113.63,77.0,13.87
107,cabo san lucas,40,MX,1579996030,73,22.89,-109.91,73.4,9.17
108,coquimbo,40,CL,1579996040,82,-29.95,-71.34,66.2,11.41
109,hermanus,46,ZA,1579996047,78,-34.42,19.23,64.0,3.0
110,baruun-urt,0,MN,1579996047,83,46.68,113.28,7.63,10.36
111,ilulissat,96,GL,1579996047,43,69.22,-51.1,10.4,10.29
112,hongjiang,99,CN,1579996047,94,27.11,110.0,34.79,5.44
113,winsum,90,NL,1579996047,93,53.33,6.52,37.4,9.17
114,richards bay,2,ZA,1579996048,80,-28.78,32.04,76.87,27.11
115,tasiilaq,100,GL,1579996048,73,65.61,-37.64,26.6,13.87
116,umm lajj,0,SA,1579996048,28,25.02,37.27,50.36,14.23
117,sobolevo,49,RU,1579996048,84,54.43,31.9,29.46,10.58
118,qaanaaq,0,GL,1579996014,44,77.48,-69.36,-12.51,5.12
119,krasnovishersk,100,RU,1579996048,96,60.41,57.08,8.38,2.73
120,paamiut,93,GL,1579996048,64,61.99,-49.67,18.07,21.72
121,calvinia,25,ZA,1579996049,74,-31.47,19.78,59.86,17.18
122,port hedland,0,AU,1579995785,83,-20.32,118.57,84.2,9.17
123,narsaq,92,GL,1579996049,67,60.92,-46.05,19.4,11.41
124,provideniya,0,RU,1579996049,68,64.38,-173.3,-4.65,3.67
125,bosaso,32,SO,1579996050,77,11.28,49.18,76.23,2.06
126,fortuna,90,US,1579996051,93,40.6,-124.16,60.01,3.36
127,paita,46,PE,1579996051,100,-5.09,-81.11,62.6,13.87
128,mokolo,0,CM,1579996051,17,10.74,13.8,57.9,6.42
129,lebu,0,CL,1579996051,69,-37.62,-73.65,64.08,10.94
130,fez,40,MA,1579996051,81,34.04,-5.0,50.0,10.29
131,ancud,100,CL,1579996051,68,-41.87,-73.82,66.2,6.93
132,ribeira grande,100,PT,1579996051,73,38.52,-28.7,54.72,5.19
133,ipixuna,75,BR,1579996051,88,-1.76,-48.8,80.6,6.93
134,port blair,100,IN,1579996052,71,11.67,92.75,77.9,14.29
135,kiunga,99,PG,1579996049,78,-6.12,141.29,81.95,0.89
136,sisimiut,100,GL,1579995791,95,66.94,-53.67,4.86,6.69
137,pevek,100,RU,1579995991,96,69.7,170.31,-13.14,1.79
138,torbay,5,CA,1579995801,72,47.67,-52.73,19.99,17.22
139,siocon,0,PH,1579996052,78,7.71,122.14,80.69,4.38
140,yulara,0,AU,1579996052,16,-25.24,130.99,84.2,13.87
141,mokhsogollokh,3,RU,1579996053,95,61.47,128.92,-39.6,2.8
142,mwinilunga,100,ZM,1579996053,98,-11.74,24.43,64.04,1.9
143,moron,1,AR,1579996053,83,-34.65,-58.62,84.0,14.99
144,tateyama,75,JP,1579996053,93,34.98,139.87,39.99,8.05
145,narva-joesuu,32,EE,1579995994,77,59.46,28.04,34.83,15.64
146,rawson,0,AR,1579995772,37,-43.3,-65.1,76.14,14.97
147,thompson,90,CA,1579996053,92,55.74,-97.86,15.8,3.69
148,arman,100,RU,1579996054,95,59.7,150.17,-4.92,20.83
149,mar del plata,0,AR,1579996054,52,-38.0,-57.56,69.8,13.87
150,kremnica,90,SK,1579996054,86,48.71,18.92,28.99,1.12
151,port elizabeth,75,ZA,1579996054,94,-33.92,25.57,68.0,16.11
152,vanavara,100,RU,1579996054,94,60.34,102.28,25.12,13.58
153,san ignacio,20,BZ,1579996054,65,17.16,-89.07,82.4,6.93
154,lompoc,1,US,1579995960,52,34.64,-120.46,70.0,8.05
155,sitka,90,US,1579996054,86,57.05,-135.33,39.2,18.34
156,chuy,24,UY,1579996055,76,-33.7,-53.46,67.91,7.36
157,georgetown,20,MY,1579996055,88,5.41,100.34,78.8,3.02
158,hilo,90,US,1579995840,57,19.73,-155.09,80.6,9.17
159,develi,0,TR,1579996055,79,38.39,35.49,19.4,2.24
160,russell,1,US,1579995926,53,32.35,-85.2,50.0,3.36
161,jasper,90,US,1579996055,74,37.2,-94.35,44.6,4.7
162,port alfred,0,ZA,1579996021,98,-33.59,26.89,64.99,5.01
163,victoria,75,HK,1579995836,87,22.29,114.16,62.01,25.28
164,faanui,22,PF,1579996056,76,-16.48,-151.75,82.45,11.21
165,te anau,90,NZ,1579996056,80,-45.42,167.72,62.67,4.34
166,harper,62,LR,1579996056,96,4.38,-7.72,77.23,1.39
167,westport,90,US,1579995783,100,41.14,-73.36,52.0,3.36
168,salalah,75,OM,1579995941,78,17.02,54.09,77.0,5.82
169,batagay-alyta,0,RU,1579996056,54,67.8,130.41,-34.38,4.38
170,puquio,100,PE,1579996057,97,-14.7,-74.13,36.36,4.94
171,borogontsy,7,RU,1579996057,96,62.67,131.17,-42.0,3.49
172,sopelana,99,ES,1579996057,93,43.38,-2.98,50.0,3.36
173,leningradskiy,97,RU,1579996057,95,69.38,178.42,-12.41,4.21
174,tiksi,0,RU,1579995816,67,71.69,128.87,-26.52,5.5
175,albany,90,US,1579996057,86,42.6,-73.97,39.99,11.41
176,isangel,33,VU,1579996058,83,-19.55,169.27,78.57,13.71
177,saint-francois,86,FR,1579996030,90,46.42,3.91,42.01,3.36
178,khasan,0,RU,1579996058,76,42.43,130.64,13.93,4.88
179,puerto leguizamo,100,CO,1579996058,84,-0.19,-74.78,77.9,2.04
180,west helena,1,US,1579996058,75,34.55,-90.64,46.99,4.74
181,camocim,96,BR,1579996058,94,-2.9,-40.84,76.8,4.88
182,dikson,100,RU,1579996058,96,73.51,80.55,-7.82,7.07
183,klaeng,89,TH,1579996059,10,12.78,101.65,82.0,4.36
184,petropavlovsk-kamchatskiy,20,RU,1579996059,73,53.05,158.65,23.0,6.71
185,makakilo city,90,US,1579996012,65,21.35,-158.09,82.4,4.7
186,kenora,90,CA,1579996059,92,49.82,-94.43,21.2,8.05
187,orchard homes,90,US,1579995929,100,46.86,-114.05,42.8,2.62
188,chalons-en-champagne,73,FR,1579996059,93,48.95,4.37,41.0,6.93
189,kavieng,95,PG,1579996059,71,-2.57,150.8,84.36,8.97
190,riyadh,0,SA,1579995907,33,24.69,46.72,46.4,10.29
191,buala,6,SB,1579996060,63,-8.14,159.59,86.49,2.57
192,ambilobe,99,MG,1579996060,95,-13.2,49.05,74.59,4.7
193,skagen,100,DK,1579996060,92,57.72,10.58,44.01,20.0
194,sigulda,2,LV,1579996060,100,57.15,24.86,34.0,5.82
195,luxor,0,EG,1579996060,66,25.7,32.64,50.0,4.7
196,sanmenxia,100,CN,1579996060,90,34.77,111.18,33.46,3.0
197,panlaitan,48,PH,1579996060,76,12.12,119.85,80.46,2.64
198,severo-kurilsk,100,RU,1579996061,92,50.68,156.12,18.72,43.49
199,tavda,98,RU,1579996061,94,58.04,65.27,8.82,6.69
200,maceio,75,BR,1579995827,88,-9.67,-35.74,80.6,6.93
201,east london,0,ZA,1579996061,80,-33.02,27.91,75.58,15.05
202,talnakh,75,RU,1579996024,84,69.49,88.4,3.2,8.95
203,bima,70,ID,1579996061,87,-8.47,118.72,78.49,2.84
204,miri,75,MY,1579996043,100,4.41,114.01,77.0,2.24
205,lerik,40,AZ,1579996062,86,38.77,48.41,28.4,3.36
206,paragominas,100,BR,1579996062,93,-2.97,-47.48,75.54,4.18
207,adra,20,ES,1579996062,87,36.75,-3.02,51.8,3.36
208,talas,0,TR,1579996062,79,38.69,35.55,19.4,2.24
209,marquette,90,US,1579996062,95,46.53,-87.63,33.01,9.17
210,bengkulu,88,ID,1579996050,89,-3.8,102.27,74.98,2.44
211,aksarka,84,RU,1579996063,100,66.56,67.8,-7.78,4.27
212,letka,100,RU,1579996037,96,59.6,49.42,12.27,4.99
213,ambanja,100,MG,1579996063,84,-13.68,48.45,78.78,4.76
214,karla,57,EE,1579996063,76,59.37,24.93,35.01,3.36
215,newport,90,GB,1579995943,100,51.59,-3.0,46.99,8.05
216,rio do sul,1,BR,1579996064,97,-27.21,-49.64,63.52,3.49
217,clyde river,5,CA,1579995939,61,70.47,-68.59,-23.8,4.7
218,souillac,40,MU,1579996061,83,-20.52,57.52,77.0,13.87
219,tual,80,ID,1579996064,65,-5.67,132.75,84.99,5.55
220,nikolskoye,40,RU,1579996064,86,59.7,30.79,30.0,6.71
221,cheremukhovo,100,RU,1579996064,97,60.35,59.99,1.15,3.02
222,cherskiy,100,RU,1579995927,95,68.75,161.3,-20.88,2.28
223,nago,90,JP,1579996065,94,26.59,127.98,73.4,6.93
224,bukachacha,26,RU,1579996065,98,52.98,116.92,-10.68,1.97
225,horqueta,0,PY,1579996065,42,-23.34,-57.06,79.11,1.72
226,belaya gora,100,RU,1579996065,96,68.53,146.42,-28.03,3.58
227,baoqing,19,CN,1579996065,77,46.33,132.21,1.26,4.16
228,longyearbyen,0,SJ,1579995784,64,78.22,15.64,-2.2,5.82
229,mahebourg,40,MU,1579996066,83,-20.41,57.7,77.0,13.87
230,san juan,3,AR,1579996066,21,-31.54,-68.54,94.66,13.53
231,mangrol,0,IN,1579996066,53,21.12,70.12,70.93,14.9
232,xinzhi,100,CN,1579996066,92,36.5,111.7,27.23,4.36
233,cidreira,60,BR,1579996031,73,-30.18,-50.21,74.77,18.75
234,holme,100,DK,1579995955,93,56.11,10.17,42.8,6.93
235,nawa,0,IN,1579996067,50,27.02,75.0,50.27,2.26
236,sao desiderio,100,BR,1579996067,89,-12.36,-44.97,71.33,0.58
237,qom,0,IR,1579996067,62,34.64,50.88,35.62,6.08
238,port-gentil,40,GA,1579996067,88,-0.72,8.78,82.4,5.82
239,cabedelo,75,BR,1579996067,83,-6.98,-34.83,82.4,9.17
240,cockburn town,0,TC,1579996067,71,21.46,-71.14,76.05,9.28
241,asau,65,RO,1579996014,86,46.43,26.4,27.0,3.36
242,burnie,98,AU,1579996067,71,-41.07,145.92,69.01,11.01
243,torres,62,BR,1579996068,71,-29.34,-49.73,74.98,14.36
244,zaltan,100,LY,1579996068,50,32.95,11.87,63.36,6.55
245,saint george,1,US,1579996068,29,37.1,-113.58,60.8,4.7
246,haines junction,99,CA,1579996045,99,60.75,-137.51,-15.11,5.93
247,pangnirtung,100,CA,1579996055,99,66.15,-65.71,-37.07,1.57
248,tucumcari,1,US,1579996068,20,35.17,-103.72,64.4,12.75
249,mawlaik,0,MM,1579996068,79,23.63,94.42,47.17,1.41
250,itaobim,95,BR,1579996069,92,-16.57,-41.83,69.57,2.68
251,chokurdakh,85,RU,1579996030,82,70.63,147.92,-26.25,4.25
252,lagoa,100,PT,1579996018,67,39.05,-27.98,58.33,10.18
253,tautira,20,PF,1579996069,66,-17.73,-149.15,87.8,12.75
254,steamboat springs,40,US,1579996018,96,40.48,-106.83,35.6,3.36
255,sandwick,95,GB,1579996069,87,60.0,-1.25,46.4,18.34
256,tuatapere,78,NZ,1579996069,47,-46.13,167.68,72.34,3.47
257,roma,90,US,1579996021,100,43.21,-75.46,35.01,5.82
258,kenai,1,US,1579996070,50,60.55,-151.26,9.0,16.11
259,lyngseidet,99,NO,1579996070,85,69.58,20.22,15.8,5.82
260,tiarei,20,PF,1579995984,66,-17.53,-149.33,87.8,12.75
261,tahe,0,CN,1579996044,92,52.33,124.73,-10.82,1.12
262,katsuura,75,JP,1579996035,93,35.13,140.3,39.99,8.05
263,la palma,75,US,1579996070,56,33.85,-118.05,75.2,4.7
264,navashino,78,RU,1579996070,83,55.53,42.2,27.27,18.25
265,mayumba,96,GA,1579996071,79,-3.43,10.66,83.28,7.16
266,sola,80,VU,1579996071,78,-13.88,167.55,82.18,11.77
267,loikaw,0,MM,1579996071,26,19.67,97.21,45.54,1.34
268,sao filipe,33,CV,1579995943,61,14.9,-24.5,74.32,15.77
269,west wendover,90,US,1579996071,93,40.74,-114.07,35.6,2.73
270,kaeo,56,NZ,1579995966,60,-35.1,173.78,93.99,1.01
271,tura,0,IN,1579996062,78,25.52,90.22,52.34,1.59
272,kantang,20,TH,1579996072,100,7.41,99.52,71.6,4.7
273,hay river,90,CA,1579995921,92,60.82,-115.8,12.2,3.89
274,dongying,100,CN,1579996072,74,37.46,118.49,33.1,6.8
275,geraldton,75,AU,1579996019,88,-28.77,114.6,66.2,9.17
276,san quintin,45,MX,1579996073,64,30.48,-115.95,63.77,5.68
277,maniitsoq,100,GL,1579996073,88,65.42,-52.9,13.51,8.16
278,corrales,1,US,1579996073,29,35.24,-106.61,57.2,19.46
279,antofagasta,75,CL,1579995775,83,-23.65,-70.4,72.0,6.93
280,persianovskiy,75,RU,1579996074,74,47.51,40.11,37.4,15.66
281,sechura,32,PE,1579996061,87,-5.56,-80.82,74.34,14.65
282,vila velha,75,BR,1579996074,94,-20.33,-40.29,71.6,9.17
283,yaring,34,TH,1579996074,83,6.87,101.37,77.14,4.41
284,moroni,100,KM,1579996074,76,-11.7,43.26,79.05,3.71
285,ostersund,100,SE,1579996074,69,63.18,14.64,37.99,12.75
286,denpasar,20,ID,1579995938,83,-8.65,115.22,82.4,3.36
287,eydhafushi,100,MV,1579995895,70,5.1,73.07,81.86,10.2
288,kalmunai,75,LK,1579996075,70,7.42,81.82,79.75,14.34
289,crotone,99,IT,1579996075,84,39.09,17.12,55.27,10.63
290,vanino,67,RU,1579996075,68,49.09,140.25,0.82,3.51
291,chilca,75,PE,1579996075,73,-12.52,-76.74,77.0,17.22
292,maiduguri,4,NG,1579996075,44,11.85,13.16,61.68,10.0
293,uusikaupunki,99,FI,1579996075,74,60.8,21.41,35.6,8.05
294,shadrinsk,87,RU,1579996076,93,56.09,63.63,7.75,9.93
295,husavik,90,IS,1579996041,92,66.04,-17.34,30.2,6.93
296,guerrero negro,0,MX,1579996076,53,27.98,-114.06,67.24,10.31
297,viransehir,0,TR,1579996076,51,37.24,39.76,34.93,5.73
298,belyy yar,100,RU,1579996076,85,53.6,91.39,17.6,2.24
299,acu,40,BR,1579995947,70,-5.58,-36.91,87.8,13.87
300,kralendijk,25,BQ,1579996077,78,12.15,-68.27,78.8,5.82
301,plettenberg bay,45,ZA,1579996077,85,-34.05,23.37,67.69,8.95
302,benidorm,85,ES,1579996077,93,38.54,-0.13,54.0,5.82
303,atlantis,75,ZA,1579996077,82,-33.57,18.48,66.0,12.75
304,govindgarh,0,IN,1579996077,58,27.5,76.98,50.74,2.15
305,zhob,0,PK,1579995852,80,31.34,69.45,37.92,2.42
306,los llanos de aridane,75,ES,1579996018,59,28.66,-17.92,62.6,3.36
307,qiongshan,90,CN,1579996078,87,20.01,110.35,59.0,8.95
308,kayerkan,75,RU,1579996078,84,69.35,87.76,3.2,8.95
309,privodino,100,RU,1579996078,95,61.08,46.5,13.68,5.97
310,waingapu,61,ID,1579996078,76,-9.66,120.26,83.35,6.35
311,pilar,75,BR,1579996078,88,-9.6,-35.96,80.6,6.93
312,synya,88,RU,1579996078,99,65.37,58.04,-9.2,0.98
313,marsabit,100,KE,1579996078,69,2.33,37.99,75.96,14.09
314,fairbanks,1,US,1579996079,74,64.84,-147.72,-7.01,5.28
315,puerto cabello,52,VE,1579996079,77,10.47,-68.01,75.16,4.68
316,natal,75,BR,1579996079,83,-5.79,-35.21,82.4,10.29
317,idah,30,NG,1579996079,17,7.11,6.73,68.83,1.16
318,ejido,100,VE,1579996079,98,8.55,-71.24,52.88,1.43
319,lavrentiya,0,RU,1579996079,76,65.58,-171.0,-13.2,2.26
320,tuktoyaktuk,90,CA,1579995850,75,69.45,-133.04,-13.0,24.16
321,biak,27,ID,1579996080,78,-0.91,122.88,81.3,3.8
322,destin,1,US,1579995820,57,30.39,-86.5,57.2,5.01
323,baijiantan,93,CN,1579996080,87,45.63,85.18,8.69,1.45
324,rimbey,5,CA,1579996080,55,52.63,-114.24,35.6,2.24
325,sakakah,75,SA,1579996010,61,29.97,40.21,46.4,4.7
326,kruisfontein,27,ZA,1579995948,86,-34.0,24.73,66.63,22.3
327,lodja,70,CD,1579996081,65,-3.48,23.43,71.94,1.7
328,molina,0,CL,1579996081,18,-35.12,-71.28,89.6,10.29
329,tukrah,55,LY,1579996081,61,32.53,20.58,53.33,12.93
330,cabatuan,43,PH,1579996081,84,10.88,122.49,78.64,5.7
331,chardara,100,KZ,1579996081,88,41.25,67.97,32.83,7.58
332,tigre,20,AR,1579996081,88,-34.43,-58.58,84.0,14.99
333,lata,0,PT,1579996082,93,40.16,-8.33,50.0,3.36
334,shenjiamen,100,CN,1579996082,89,29.96,122.3,54.79,20.92
335,camacha,20,PT,1579996082,77,33.08,-16.33,59.0,9.17
336,pisco,75,PE,1579996082,30,-13.7,-76.22,75.0,19.46
337,spornoye,90,RU,1579996082,86,50.84,37.29,33.8,17.9
338,lanzhou,40,CN,1579996082,92,36.06,103.79,24.01,1.72
339,olinda,75,BR,1579995824,79,-8.01,-34.86,84.2,9.17
340,mana,73,GF,1579996082,95,5.66,-53.78,74.41,2.82
341,xingyi,89,CN,1579996083,91,24.19,102.82,37.99,3.0
342,vila,40,PT,1579996060,100,42.03,-8.16,51.01,5.82
343,labuhan,100,ID,1579996083,91,-6.88,112.21,75.97,3.78
344,great yarmouth,100,GB,1579996083,93,52.61,1.73,43.0,12.75
345,nanortalik,100,GL,1579995930,75,60.14,-45.24,23.04,13.27
346,danville,1,US,1579996084,56,36.59,-79.39,51.8,4.7
347,katobu,86,ID,1579996040,77,-4.94,122.53,83.19,1.45
348,aripuana,100,BR,1579996084,96,-9.17,-60.63,76.17,1.1
349,mapiripan,83,CO,1579996084,54,2.89,-72.13,83.1,5.93
350,mantua,75,IT,1579996084,100,45.17,10.78,46.0,2.24
351,pueblo rico,40,CO,1579996084,69,5.24,-76.04,78.8,6.93
352,pahrump,1,US,1579996084,18,36.21,-115.98,69.01,2.15
353,healdsburg,90,US,1579996085,93,38.61,-122.87,64.99,2.75
354,sol-iletsk,100,RU,1579996085,96,51.16,54.99,29.88,18.63
355,mount gambier,90,AU,1579996068,88,-37.83,140.77,64.4,9.17
356,san rafael,0,AR,1579996085,21,-34.62,-68.33,85.19,8.16
357,araouane,100,ML,1579995975,9,18.9,-3.53,75.96,5.03
358,takapau,0,NZ,1579996085,53,-40.03,176.35,82.99,4.0
359,florianopolis,7,BR,1579995791,78,-27.61,-48.5,75.99,3.36
360,cayenne,75,GF,1579996025,94,4.93,-52.33,75.2,5.82
361,nemuro,100,JP,1579996086,68,43.32,145.57,17.28,15.99
362,coffs harbour,7,AU,1579996086,74,-30.3,153.13,84.99,11.41
363,kushima,75,JP,1579996086,76,31.46,131.23,51.8,6.93
364,vostok,0,RU,1579996050,85,46.49,135.88,-5.76,5.14
365,moctezuma,1,MX,1579996086,41,29.8,-109.67,65.16,5.5
366,alice springs,0,AU,1579996086,15,-23.7,133.88,82.4,9.17
367,aswan,0,EG,1579995982,66,24.09,32.91,49.6,10.78
368,gurmatkal,97,IN,1579996087,66,16.87,77.4,67.87,8.1
369,pandan,67,PH,1579996087,81,14.05,124.17,79.07,2.73
370,balikpapan,40,ID,1579996087,100,-1.27,116.83,78.8,4.7
371,maloy,100,NO,1579996087,100,61.94,5.11,45.0,26.4
372,pontianak,75,ID,1579996087,94,-0.03,109.33,77.0,2.62
373,eidsvag,100,NO,1579996088,75,62.78,8.07,46.4,35.57
374,sakaiminato,75,JP,1579996088,93,35.55,133.23,41.0,3.36
375,vagamo,100,NO,1579996088,98,61.88,9.1,16.41,3.33
376,orlik,100,RU,1579996088,62,52.52,99.83,4.14,1.95
377,coahuayana,75,MX,1579996088,69,18.73,-103.68,75.2,11.41
378,satipo,100,PE,1579996088,97,-11.25,-74.64,63.55,1.83
379,shieli,67,KZ,1579996088,95,44.17,66.75,25.41,10.38
380,broken hill,0,AU,1579996029,31,-31.95,141.43,78.8,12.75
381,tuymazy,66,RU,1579996089,95,54.61,53.71,15.73,4.5
382,hami,0,CN,1579996089,75,42.8,93.45,6.49,1.86
383,gazli,24,UZ,1579996089,78,40.13,63.45,26.87,2.3
384,constitucion,0,CL,1579996089,72,-35.33,-72.42,62.11,8.48
385,saint-augustin,36,CA,1579996064,78,51.23,-58.65,15.12,11.12
386,adrar,83,MR,1579995792,21,20.5,-10.07,76.23,11.05
387,vestmannaeyjar,70,IS,1579996089,65,63.44,-20.27,39.11,15.39
388,strangnas,96,SE,1579996090,80,59.38,17.03,42.01,14.99
389,townsville,90,AU,1579996090,94,-19.25,146.8,78.8,6.93
390,omboue,14,GA,1579996090,93,-1.57,9.26,76.26,2.46
391,canalete,20,CO,1579996091,70,8.68,-76.2,84.2,10.29
392,bairiki,20,KI,1579996091,74,1.33,172.98,87.8,6.93
393,laem sing,95,TH,1579996091,68,12.48,102.07,82.0,6.24
394,rabo de peixe,40,PT,1579996091,87,37.8,-25.58,57.2,5.82
395,flin flon,90,CA,1579996091,85,54.77,-101.86,19.4,5.82
396,ara,0,IN,1579996091,100,25.57,84.67,50.0,4.81
397,verkhoyansk,18,RU,1579996092,99,67.54,133.38,-45.58,1.59
398,canon city,1,US,1579995925,18,38.44,-105.24,57.2,10.29
399,karratha,0,AU,1579996092,74,-20.74,116.85,85.59,2.82
400,yatou,100,CN,1579996092,66,37.15,122.38,38.86,14.23
401,porto seguro,40,BR,1579996092,83,-16.45,-39.06,80.6,11.41
402,aracruz,75,BR,1579996092,94,-19.82,-40.27,71.6,9.17
403,atherton,90,GB,1579996092,93,53.52,-2.49,45.0,4.7
404,kamina,100,CD,1579996093,97,-8.74,24.99,65.34,2.91
405,sarangani,25,PH,1579996093,79,5.4,125.46,82.0,9.35
406,gazanjyk,0,TM,1579995981,79,39.24,55.52,30.18,2.73
407,marawi,0,PH,1579996093,85,8.0,124.29,80.01,5.01
408,mehamn,100,NO,1579995945,77,71.04,27.85,17.69,21.21
409,nouadhibou,100,MR,1579996094,59,20.93,-17.03,66.2,18.34
410,saint-georges,20,GD,1579996094,83,12.06,-61.75,78.8,5.82
411,joshimath,28,IN,1579996094,47,30.57,79.57,24.55,10.38
412,taksimo,99,RU,1579996094,98,56.34,114.88,-12.08,0.56
413,meulaboh,73,ID,1579996059,82,4.14,96.13,81.19,6.53
414,raudeberg,100,NO,1579995891,100,61.99,5.14,45.0,26.4
415,ugoofaaru,100,MV,1579996095,68,5.67,73.0,82.22,6.58
416,padang,93,ID,1579996095,96,-0.95,100.35,70.02,1.9
417,lakatoro,42,VU,1579996095,71,-16.1,167.42,81.75,10.33
418,sault sainte marie,90,CA,1579995828,100,46.52,-84.33,35.6,3.33
419,havre,90,FR,1579996095,100,49.58,0.33,39.2,4.7
420,bathsheba,75,BB,1579996095,78,13.22,-59.52,78.8,6.93
421,aksu,59,CN,1579995941,75,41.12,80.26,22.17,1.97
422,safaga,0,EG,1579996096,40,26.73,33.94,53.6,8.05
423,belyy,67,RU,1579996096,83,55.84,32.94,27.88,9.4
424,saint anthony,75,US,1579996096,74,45.02,-93.22,32.0,6.93
425,pimentel,50,PE,1579996096,29,-6.84,-79.93,66.2,20.8
426,quatre cocos,40,MU,1579996096,83,-20.21,57.76,77.0,13.87
427,codrington,76,AU,1579995948,89,-38.27,141.97,62.37,14.85
428,avera,1,US,1579996096,70,33.19,-82.53,50.0,4.7
429,goryachegorsk,100,RU,1579996096,81,55.41,88.92,19.94,11.86
430,samarai,67,PG,1579996097,58,-10.62,150.67,87.44,2.62
431,cahors,100,FR,1579996097,93,44.42,1.33,46.0,2.24
432,magadan,100,RU,1579996097,80,59.57,150.8,-1.55,17.76
433,saryg-sep,66,RU,1579996097,93,51.5,95.6,-1.98,1.21
434,vangaindrano,77,MG,1579996097,90,-23.35,47.6,66.92,1.61
435,mbandaka,100,CD,1579996097,38,0.05,18.26,70.65,2.84
436,ayan,0,RU,1579996098,70,56.45,138.17,-18.4,12.15
437,dwarka,0,IN,1579996098,69,22.24,68.97,71.82,11.65
438,hwange,1,ZW,1579996098,86,-18.37,26.5,67.89,0.89
439,talcahuano,0,CL,1579996098,60,-36.72,-73.12,69.8,16.11
440,gidam,79,IN,1579996098,68,18.98,81.4,61.3,1.99
441,grand gaube,40,MU,1579996098,83,-20.01,57.66,77.0,13.87
442,ust-maya,43,RU,1579996098,98,60.42,134.53,-47.43,0.83
443,byron bay,75,AU,1579996024,74,-28.65,153.62,84.99,9.17
444,quang ngai,100,VN,1579996099,86,15.12,108.8,73.2,7.92
445,mildura,0,AU,1579996099,53,-34.2,142.15,77.0,11.41
446,linhares,100,BR,1579996099,94,-19.39,-40.07,73.85,3.91
447,diego de almagro,77,CL,1579996099,64,-26.37,-70.05,69.04,6.02
448,garwa,0,IN,1579996099,61,24.18,83.82,47.61,3.06
449,jilin,0,CN,1579996099,87,43.0,126.0,1.31,2.1
450,the valley,40,AI,1579996099,78,18.22,-63.06,78.8,6.93
451,harnoli,0,PK,1579996100,62,32.28,71.55,49.95,0.47
452,jiangyou,95,CN,1579996100,89,31.77,104.72,29.98,1.5
453,ravar,0,IR,1579996100,57,31.27,56.81,39.06,7.4
454,kinango,100,KE,1579996100,89,-4.14,39.32,76.5,1.92
455,poum,89,NC,1579996100,80,-20.23,164.02,79.9,19.82
456,mareeba,99,AU,1579996078,83,-17.0,145.43,86.0,5.82
457,worcester,90,US,1579996100,100,42.33,-71.83,46.0,8.05
458,beringovskiy,100,RU,1579996091,84,63.05,179.32,14.81,7.85
459,nhulunbuy,75,AU,1579996101,79,-12.23,136.77,86.0,11.41
460,cururupu,100,BR,1579996101,97,-1.83,-44.87,75.88,3.44
461,estelle,1,US,1579996101,62,29.85,-90.11,60.8,3.36
462,road town,20,VG,1579996101,74,18.42,-64.62,78.8,3.36
463,ndele,100,CF,1579996101,15,8.41,20.65,69.53,10.71
464,male,100,MV,1579996102,80,4.17,73.51,80.91,15.01
465,diamantino,94,BR,1579996102,82,-14.41,-56.45,76.15,3.58
466,brae,100,GB,1579996102,87,60.4,-1.35,46.4,18.34
467,conceicao do araguaia,100,BR,1579995986,93,-8.26,-49.26,76.89,3.44
468,sheridan,1,US,1579996102,39,44.83,-106.92,48.2,3.36
469,gimli,98,CA,1579996103,90,50.63,-96.99,24.01,7.0
470,verkhnyaya inta,84,RU,1579996044,99,65.98,60.31,-6.47,0.6
471,havelock,1,US,1579996103,54,34.88,-76.9,55.4,12.75
472,guarapari,75,BR,1579995981,94,-20.67,-40.5,71.6,9.17
473,ovalle,17,CL,1579995973,56,-30.6,-71.2,71.06,4.81
474,doha,0,QA,1579996103,26,25.29,51.53,59.0,13.87
475,tamandare,74,BR,1579996103,85,-8.76,-35.1,81.91,17.96
476,sao miguel do araguaia,99,BR,1579996104,96,-13.28,-50.16,73.89,5.17
477,barabinsk,99,RU,1579996104,94,55.36,78.36,2.57,11.97
478,ipira,100,BR,1579996104,75,-12.16,-39.74,79.75,10.27
479,mbala,26,ZM,1579996104,95,-8.84,31.37,58.62,1.9
480,anadyr,90,RU,1579996104,78,64.75,177.48,15.8,11.18
481,rock sound,16,BS,1579996104,66,24.9,-76.2,73.11,4.79
482,vanimo,30,PG,1579996104,81,-2.67,141.3,83.28,14.9
483,maragogi,74,BR,1579995926,85,-9.01,-35.22,81.91,17.96
484,ingham,90,US,1579996105,86,42.6,-84.38,34.0,4.7
485,dunmore,90,US,1579995899,100,41.42,-75.63,39.99,5.82
486,abja-paluoja,14,EE,1579996105,90,58.13,25.35,30.99,5.97
487,takoradi,94,GH,1579995966,86,4.88,-1.76,75.9,1.32
488,ahuimanu,90,US,1579996105,69,21.44,-157.84,82.4,10.29
489,rapid valley,1,US,1579996105,55,44.06,-103.15,46.4,8.05
490,walvis bay,0,NA,1579996066,100,-22.96,14.51,63.0,2.24
491,asekeyevo,100,RU,1579996106,97,53.57,52.8,20.84,0.69
492,antsohihy,100,MG,1579996106,92,-14.88,47.99,72.9,4.34
493,vallenar,22,CL,1579996106,76,-28.57,-70.76,65.68,6.11
494,tauberbischofsheim,90,DE,1579996106,100,49.62,9.66,35.01,3.36
495,san andres,20,CO,1579995993,65,12.58,-81.7,82.4,11.41
496,santa fe,0,AR,1579996052,27,-31.63,-60.7,83.37,2.3
497,mandera,100,KE,1579996106,61,3.94,41.87,82.81,15.61
498,coracora,100,PE,1579996106,97,-15.03,-73.78,47.75,6.13
499,solnechnyy,52,RU,1579996107,85,50.72,136.63,-9.47,0.98
500,tibiri,43,NE,1579996107,11,13.56,7.05,64.04,11.9
501,avanigadda,86,IN,1579996107,89,16.02,80.92,68.14,1.54
502,mount isa,75,AU,1579996107,100,-20.73,139.5,75.2,5.82
503,nacala,100,MZ,1579996107,96,-14.54,40.67,70.84,3.85
504,auki,2,SB,1579996107,75,-8.77,160.7,83.44,4.61
505,copiapo,23,CL,1579996107,57,-27.37,-70.33,75.2,12.75
506,graaff-reinet,0,ZA,1579996108,84,-32.25,24.53,66.0,2.24
507,seymchan,100,RU,1579996108,95,62.88,152.43,-26.72,8.28
508,nizhnyaya salda,100,RU,1579996108,95,58.08,60.72,14.99,5.82
509,fort morgan,1,US,1579996108,26,40.25,-103.8,50.0,5.82
510,laibin,72,CN,1579996108,83,23.7,109.27,44.15,11.5
511,kysyl-syr,50,RU,1579996108,95,63.9,122.76,-34.51,8.99
512,sorata,85,BO,1579996108,76,-15.77,-68.63,35.28,9.44
513,aklavik,90,CA,1579996108,75,68.22,-135.01,-13.0,23.04
514,sidney,40,AU,1579996055,70,-33.87,151.21,91.99,3.36
515,mackay,90,AU,1579996109,100,-21.15,149.2,78.01,6.93
516,chake chake,100,TZ,1579996109,84,-5.25,39.77,81.95,10.42
517,campo formoso,62,BR,1579996109,83,-10.51,-40.32,71.6,3.4
518,akdepe,49,TM,1579996109,79,42.06,59.38,26.6,9.17
519,la rioja,75,ES,1579996109,100,42.25,-2.5,42.8,3.36
520,tarakan,32,ID,1579996109,84,3.3,117.63,79.27,3.94
521,plouzane,90,FR,1579996109,100,48.38,-4.62,46.4,3.36
522,sampit,97,ID,1579996110,96,-2.53,112.95,75.58,1.59
523,udachnyy,85,RU,1579996110,74,66.42,112.4,-27.4,4.47
524,bose,41,IT,1579996110,80,45.46,8.01,39.99,3.36
525,aljezur,2,PT,1579996110,93,37.32,-8.8,50.0,1.99
526,olafsvik,99,IS,1579996110,79,64.89,-23.71,33.89,7.78
527,rovaniemi,90,FI,1579996110,84,66.5,25.72,3.2,3.36
528,pacific grove,1,US,1579996110,68,36.62,-121.92,66.99,3.11
529,obzor,68,BG,1579996110,61,42.82,27.88,41.0,10.29
530,torquay,44,GB,1579996111,96,50.46,-3.51,48.0,10.63
531,smithers,75,CA,1579996104,96,54.78,-127.17,41.0,8.05
532,bayan,0,CN,1579996111,91,46.08,127.4,-5.39,4.43
533,denia,100,ES,1579996111,90,38.84,0.11,54.0,11.61
534,grindavik,75,IS,1579996111,80,63.84,-22.43,35.6,8.05
535,luderitz,0,NA,1579996111,82,-26.65,15.16,68.0,10.29
536,huilong,100,CN,1579996111,41,31.81,121.66,53.01,15.5
537,pullman,90,US,1579996112,93,46.73,-117.18,48.99,5.82
538,dunedin,49,NZ,1579996112,76,-45.87,170.5,64.99,18.01
539,ixtapa,90,MX,1579996112,94,20.7,-105.2,73.4,8.05
540,qaqortoq,99,GL,1579996089,67,60.72,-46.03,19.4,11.41
541,tazovskiy,89,RU,1579996112,97,67.47,78.7,-5.24,5.28
542,lakes entrance,0,AU,1579996112,58,-37.88,147.98,78.01,1.01
543,baherden,0,TM,1579996112,76,38.44,57.43,30.94,11.16
544,turayf,7,SA,1579996112,93,31.67,38.66,37.4,5.82
545,pangkalanbuun,96,ID,1579996113,96,-2.68,111.62,75.2,0.87
546,bubaque,92,GW,1579996113,75,11.28,-15.83,77.58,13.38
547,marsh harbour,1,BS,1579996113,70,26.54,-77.06,72.93,5.59
548,kazerun,82,IR,1579996113,91,29.62,51.65,44.51,6.06
549,port pirie,90,AU,1579996113,73,-33.18,138.02,71.6,11.41
550,taitung,75,TW,1579996043,100,22.76,121.14,66.2,4.7
551,yelkhovka,75,RU,1579996114,92,53.87,50.28,30.2,1.77
552,biu,12,NG,1579996114,18,10.61,12.19,67.06,17.52
553,maitum,1,PH,1579996114,72,6.04,124.5,81.19,0.85
554,zhigansk,63,RU,1579996114,89,66.77,123.37,-31.56,14.25
555,grand-santi,70,GF,1579996114,97,4.25,-54.38,73.4,4.45
556,moree,90,AU,1579996114,69,-29.47,149.85,78.8,14.99
557,manzhouli,100,CN,1579996115,86,49.6,117.43,-3.23,3.4
558,kupino,91,RU,1579996115,91,54.37,77.3,5.72,14.52
559,alugan,4,PH,1579996087,86,12.22,125.48,79.9,9.98
560,cam ranh,20,VN,1579996115,88,11.92,109.16,73.4,4.7
561,tulun,86,RU,1579996116,80,54.56,100.58,17.96,4.72
562,kwekwe,35,ZW,1579996116,76,-18.93,29.81,62.62,3.8
563,coihaique,75,CL,1579996039,52,-45.58,-72.07,64.4,4.7
564,altay,74,CN,1579996116,57,47.87,88.12,12.43,2.19
565,igarka,99,RU,1579996116,96,67.47,86.58,2.77,6.69
566,berlevag,100,NO,1579995853,73,70.86,29.09,22.66,27.4
567,kathu,20,TH,1579996117,88,7.92,98.33,71.6,8.32
568,grande prairie,40,CA,1579996117,92,55.17,-118.8,12.2,4.7
569,waipawa,18,NZ,1579996109,64,-41.41,175.52,75.2,18.34
570,abha,20,SA,1579996117,93,18.22,42.51,46.4,4.7
571,luganville,31,VU,1579996117,66,-15.53,167.17,83.05,5.68
572,mudgee,75,AU,1579996117,61,-32.59,149.59,82.4,5.82
573,brandon,1,US,1579996118,58,27.94,-82.29,60.8,5.82
574,manzanillo,22,CU,1579995964,66,20.34,-77.12,74.07,4.21
575,la maddalena,32,IT,1579996118,100,41.21,9.41,42.8,3.36
576,horodok,91,UA,1579996118,82,49.16,26.58,32.0,1.99
577,turmeque,100,CO,1579996118,96,5.32,-73.49,53.92,2.15
